[{"name":"PalaCandy","address":"Viale Stucchi 16","LAT_WGS84":45.5853321789,"LONG_WGS84":9.3092497825,"geopoint":{"type":"Point","coordinates":[9.3092497825,45.5853321789]}},{"name":"Knights Palace","address":"Via Parma 7","LAT_WGS84":45.5818185289,"LONG_WGS84":8.8944551989,"geopoint":{"type":"Point","coordinates":[8.8944551989,45.5818185289]}},{"name":"Palasport Pianella","address":"Via Cant\u00f9, 10","LAT_WGS84":45.7400633671,"LONG_WGS84":9.1000717969,"geopoint":{"type":"Point","coordinates":[9.1000717969,45.7400633671]}},{"name":"Mediolanum Forum","address":"Via Giuseppe di Vittorio 6","LAT_WGS84":45.4018655425,"LONG_WGS84":9.1438684457,"geopoint":{"type":"Point","coordinates":[9.1438684457,45.4018655425]}},{"name":"Enerxenia Arena","address":"Piazzale Antonio Gramsci 1","LAT_WGS84":45.8359434396,"LONG_WGS84":8.802507805,"geopoint":{"type":"Point","coordinates":[8.802507805,45.8359434396]}},{"name":"Virgin Active","address":"Via Carlo Imbonati","LAT_WGS84":45.5020183705,"LONG_WGS84":9.182590166,"geopoint":{"type":"Point","coordinates":[9.182590166,45.5020183705]}},{"name":"Palafamila","address":"Via Antonio Gramsci, 9","LAT_WGS84":45.6424322024,"LONG_WGS84":9.1684677693,"geopoint":{"type":"Point","coordinates":[9.1684677693,45.6424322024]}},{"name":"PalaBorsani","address":"Via per Legnano 3","LAT_WGS84":45.6058644384,"LONG_WGS84":8.9092087119,"geopoint":{"type":"Point","coordinates":[8.9092087119,45.6058644384]}},{"name":"Pala Iseo","address":"Via Iseo 6","LAT_WGS84":45.5205438904,"LONG_WGS84":9.1738031272,"geopoint":{"type":"Point","coordinates":[9.1738031272,45.5205438904]}},{"name":"Palazzetto di Brusuglio","address":"Via Angelo Bizzozero","LAT_WGS84":45.5376020269,"LONG_WGS84":9.1739232476,"geopoint":{"type":"Point","coordinates":[9.1739232476,45.5376020269]}},{"name":"Olimpia Pallacanestro Milano","address":null,"LAT_WGS84":45.4805467102,"LONG_WGS84":9.1422211705,"geopoint":{"type":"Point","coordinates":[9.1422211705,45.4805467102]}},{"name":"Sport\u00b3 (Sportcube)","address":"Via Francesco Baracca 74","LAT_WGS84":45.5112573083,"LONG_WGS84":8.6622834521,"geopoint":{"type":"Point","coordinates":[8.6622834521,45.5112573083]}},{"name":"Paladesio","address":"Largo Atleti Azzurri d'Italia","LAT_WGS84":45.6132777601,"LONG_WGS84":9.192975214,"geopoint":{"type":"Point","coordinates":[9.192975214,45.6132777601]}},{"name":"C.G.M. Basket Milano","address":"Via Commenda 5","LAT_WGS84":45.4596369896,"LONG_WGS84":9.1982469326,"geopoint":{"type":"Point","coordinates":[9.1982469326,45.4596369896]}},{"name":"Centro Sportivo Comunale","address":"Via Michelangelo Buonarroti, 44","LAT_WGS84":45.5219138004,"LONG_WGS84":9.3171994823,"geopoint":{"type":"Point","coordinates":[9.3171994823,45.5219138004]}},{"name":"Centro Sportivo Ugo Ronchi","address":"Via Cristoforo Colombo","LAT_WGS84":45.632124381,"LONG_WGS84":9.0396110393,"geopoint":{"type":"Point","coordinates":[9.0396110393,45.632124381]}},{"name":"Palazzetto Forti e Liberi","address":"Viale Cesare Battisti, 30","LAT_WGS84":45.5927742535,"LONG_WGS84":9.2667067705,"geopoint":{"type":"Point","coordinates":[9.2667067705,45.5927742535]}},{"name":"Centro Sportivo Nuovo Basket Groane 2005","address":"Via Superga 5","LAT_WGS84":45.6697028411,"LONG_WGS84":9.1045360187,"geopoint":{"type":"Point","coordinates":[9.1045360187,45.6697028411]}},{"name":"Palazzetto Rovello Porro","address":null,"LAT_WGS84":45.6544361779,"LONG_WGS84":9.047117295,"geopoint":{"type":"Point","coordinates":[9.047117295,45.6544361779]}},{"name":"Pala Sironi","address":"Via per Cabiate","LAT_WGS84":45.690919439,"LONG_WGS84":9.1713903463,"geopoint":{"type":"Point","coordinates":[9.1713903463,45.690919439]}},{"name":"Pala Vivai","address":"Via dei Vivai, 12","LAT_WGS84":45.6963270652,"LONG_WGS84":9.1732460358,"geopoint":{"type":"Point","coordinates":[9.1732460358,45.6963270652]}},{"name":"Palazzetto di Besana Brianza","address":"Via Alcide de Gasperi","LAT_WGS84":45.6904102023,"LONG_WGS84":9.2742298043,"geopoint":{"type":"Point","coordinates":[9.2742298043,45.6904102023]}},{"name":"Pallone - PalaSchuster","address":"Via Cardinale Schuster","LAT_WGS84":45.6300651489,"LONG_WGS84":8.9454674721,"geopoint":{"type":"Point","coordinates":[8.9454674721,45.6300651489]}},{"name":"Palazzetto dello Sport","address":"Via Italia","LAT_WGS84":45.6506017565,"LONG_WGS84":9.3831280494,"geopoint":{"type":"Point","coordinates":[9.3831280494,45.6506017565]}},{"name":"Palazzetto dello Sport","address":"Via Per Castellanza 3","LAT_WGS84":45.6059622566,"LONG_WGS84":8.9091531371,"geopoint":{"type":"Point","coordinates":[8.9091531371,45.6059622566]}},{"name":"Palestra Malacarne","address":"Via Montale","LAT_WGS84":45.6974431193,"LONG_WGS84":9.0792396924,"geopoint":{"type":"Point","coordinates":[9.0792396924,45.6974431193]}},{"name":"PalaArosio","address":"Via Buonarroti 6","LAT_WGS84":45.7154540352,"LONG_WGS84":9.2096184826,"geopoint":{"type":"Point","coordinates":[9.2096184826,45.7154540352]}},{"name":"Palazzetto Dello Sport Arosio","address":"Via Casati","LAT_WGS84":45.715477379,"LONG_WGS84":9.2096570886,"geopoint":{"type":"Point","coordinates":[9.2096570886,45.715477379]}},{"name":"Palazzetto Di Senna Comasco","address":"Via Al Gaggio","LAT_WGS84":45.762194616,"LONG_WGS84":9.107024369,"geopoint":{"type":"Point","coordinates":[9.107024369,45.762194616]}},{"name":"PalaCastellotti","address":"Via Piermarini","LAT_WGS84":45.2972527981,"LONG_WGS84":9.5104864639,"geopoint":{"type":"Point","coordinates":[9.5104864639,45.2972527981]}},{"name":"Palasampietro","address":null,"LAT_WGS84":45.7558340152,"LONG_WGS84":9.0630838365,"geopoint":{"type":"Point","coordinates":[9.0630838365,45.7558340152]}},{"name":"Pala Tacca","address":null,"LAT_WGS84":45.6691997979,"LONG_WGS84":8.8234804863,"geopoint":{"type":"Point","coordinates":[8.8234804863,45.6691997979]}},{"name":"Palasport","address":"Tevere 30","LAT_WGS84":45.7728281358,"LONG_WGS84":9.028543787,"geopoint":{"type":"Point","coordinates":[9.028543787,45.7728281358]}},{"name":"Palazzetto dello Sport","address":"Via Custoza","LAT_WGS84":45.4843654007,"LONG_WGS84":8.7015235278,"geopoint":{"type":"Point","coordinates":[8.7015235278,45.4843654007]}},{"name":"Palestra Scuole Medie Castiglione Olona","address":"Via Monte Cimone","LAT_WGS84":45.7489110288,"LONG_WGS84":8.874950879,"geopoint":{"type":"Point","coordinates":[8.874950879,45.7489110288]}},{"name":"Palabutta","address":"Viale Alcide de Gasperi","LAT_WGS84":45.7933921105,"LONG_WGS84":9.4314125395,"geopoint":{"type":"Point","coordinates":[9.4314125395,45.7933921105]}},{"name":"Palasport di Olginate","address":null,"LAT_WGS84":45.7931988484,"LONG_WGS84":9.4192954227,"geopoint":{"type":"Point","coordinates":[9.4192954227,45.7931988484]}},{"name":"Palazzetto dello Sport","address":"Via Gasparotto 10","LAT_WGS84":45.7917324128,"LONG_WGS84":8.8861879511,"geopoint":{"type":"Point","coordinates":[8.8861879511,45.7917324128]}},{"name":"Palestra Comunale - Gazzada Schianno","address":null,"LAT_WGS84":45.7833250587,"LONG_WGS84":8.8276984218,"geopoint":{"type":"Point","coordinates":[8.8276984218,45.7833250587]}},{"name":"Palazzetto dello Sport","address":"Via Ina Case, 17","LAT_WGS84":45.5953048919,"LONG_WGS84":8.6404117926,"geopoint":{"type":"Point","coordinates":[8.6404117926,45.5953048919]}},{"name":"Palabonfantini","address":null,"LAT_WGS84":45.4928243211,"LONG_WGS84":8.6033955301,"geopoint":{"type":"Point","coordinates":[8.6033955301,45.4928243211]}},{"name":"Campo sportivo \"Mario Porta\"","address":"Via Bixio","LAT_WGS84":45.7724353874,"LONG_WGS84":8.8910154513,"geopoint":{"type":"Point","coordinates":[8.8910154513,45.7724353874]}},{"name":"Palestra Comunale XXV Aprile","address":"Via XXV Aprile","LAT_WGS84":45.8195398282,"LONG_WGS84":8.8170663547,"geopoint":{"type":"Point","coordinates":[8.8170663547,45.8195398282]}},{"name":"Campus Assigeco","address":"Via Papa Giovanni XXIII, 46","LAT_WGS84":45.153742104,"LONG_WGS84":9.6948504359,"geopoint":{"type":"Point","coordinates":[9.6948504359,45.153742104]}},{"name":"PalaEolo","address":"Via del Lago 2","LAT_WGS84":45.7211971499,"LONG_WGS84":8.6024071479,"geopoint":{"type":"Point","coordinates":[8.6024071479,45.7211971499]}}]