[{"name":"Spazio Rossana Orlandi","address":"Via Matteo Bandello 14-16","LAT_WGS84":45.4638117245,"LONG_WGS84":9.1667218642,"geopoint":{"type":"Point","coordinates":[9.1667218642,45.4638117245]}},{"name":"Technogym","address":"Via Durini 1","LAT_WGS84":45.4636561207,"LONG_WGS84":9.1975602304,"geopoint":{"type":"Point","coordinates":[9.1975602304,45.4636561207]}},{"name":"Kartell Flagship Store","address":"Via Carlo Porta, 1","LAT_WGS84":45.4738541053,"LONG_WGS84":9.194826928,"geopoint":{"type":"Point","coordinates":[9.194826928,45.4738541053]}},{"name":"10 Corso Como","address":"Corso Como 10","LAT_WGS84":45.4818518246,"LONG_WGS84":9.1878313944,"geopoint":{"type":"Point","coordinates":[9.1878313944,45.4818518246]}},{"name":"Echi di Carta","address":"Via Vetta d'Italia 24","LAT_WGS84":45.6076275963,"LONG_WGS84":9.2426583872,"geopoint":{"type":"Point","coordinates":[9.2426583872,45.6076275963]}},{"name":"Cargo","address":"Via Meucci 39","LAT_WGS84":45.5084060152,"LONG_WGS84":9.2431586326,"geopoint":{"type":"Point","coordinates":[9.2431586326,45.5084060152]}},{"name":"Fratelli Radice S.r.l.","address":"Via Sprelunga 4","LAT_WGS84":45.6495906955,"LONG_WGS84":9.1324026042,"geopoint":{"type":"Point","coordinates":[9.1324026042,45.6495906955]}},{"name":"Design Supermarket","address":"Piazza del Duomo","LAT_WGS84":45.4647218398,"LONG_WGS84":9.1917040598,"geopoint":{"type":"Point","coordinates":[9.1917040598,45.4647218398]}},{"name":"Galleria Carla Sozzani","address":"Corso Como 10","LAT_WGS84":45.4818464221,"LONG_WGS84":9.1878260613,"geopoint":{"type":"Point","coordinates":[9.1878260613,45.4818464221]}},{"name":"Bottega Veneta Headquarters","address":"Via Privata Ercole Marelli 6","LAT_WGS84":45.4426792516,"LONG_WGS84":9.2006430945,"geopoint":{"type":"Point","coordinates":[9.2006430945,45.4426792516]}},{"name":"Moroni Gomma","address":"Corso Matteotti 14","LAT_WGS84":45.466791984,"LONG_WGS84":9.1960394382,"geopoint":{"type":"Point","coordinates":[9.1960394382,45.466791984]}},{"name":"Combines xl","address":"Via Montevideo 9","LAT_WGS84":45.4557381391,"LONG_WGS84":9.166329299,"geopoint":{"type":"Point","coordinates":[9.166329299,45.4557381391]}},{"name":"Jannelli & Volpi","address":"Via Melzo, 7","LAT_WGS84":45.47307,"LONG_WGS84":9.20974,"geopoint":{"type":"Point","coordinates":[9.20974,45.47307]}},{"name":"Alessi","address":"via Manzoni, 14-16","LAT_WGS84":45.4692686728,"LONG_WGS84":9.1920960821,"geopoint":{"type":"Point","coordinates":[9.1920960821,45.4692686728]}},{"name":"Gucci","address":"Via Monte Napoleone 5\/7","LAT_WGS84":45.467778609,"LONG_WGS84":9.1955807805,"geopoint":{"type":"Point","coordinates":[9.1955807805,45.467778609]}},{"name":"IKEA","address":"Via dell'Artigianato 7","LAT_WGS84":45.549760428,"LONG_WGS84":9.3315339088,"geopoint":{"type":"Point","coordinates":[9.3315339088,45.549760428]}},{"name":"Milano Design Village","address":"Via Savona 56","LAT_WGS84":45.4535368776,"LONG_WGS84":9.1612045225,"geopoint":{"type":"Point","coordinates":[9.1612045225,45.4535368776]}},{"name":"Palazzo di Brera","address":"Via Brera, 28","LAT_WGS84":45.4720189503,"LONG_WGS84":9.1880433576,"geopoint":{"type":"Point","coordinates":[9.1880433576,45.4720189503]}},{"name":"Spazio Plana \/ grandesignEtico","address":"P.le Cadorna, 2","LAT_WGS84":45.4685799962,"LONG_WGS84":9.1782937262,"geopoint":{"type":"Point","coordinates":[9.1782937262,45.4685799962]}},{"name":"ERIC EGAN INTERIOR DESIGN","address":"Piazza Castello 5","LAT_WGS84":45.4684379169,"LONG_WGS84":9.1804786026,"geopoint":{"type":"Point","coordinates":[9.1804786026,45.4684379169]}},{"name":"Studio Sarpi Architetti","address":"Via Paolo Sarpi","LAT_WGS84":45.4813823,"LONG_WGS84":9.175851,"geopoint":{"type":"Point","coordinates":[9.175851,45.4813823]}},{"name":"Design Group Italia","address":"Via Aleardo Aleardi, 12","LAT_WGS84":45.4824084376,"LONG_WGS84":9.1744326171,"geopoint":{"type":"Point","coordinates":[9.1744326171,45.4824084376]}},{"name":"Skitsch","address":"Via Monte di Pieta, 11","LAT_WGS84":45.4696688721,"LONG_WGS84":9.1907738552,"geopoint":{"type":"Point","coordinates":[9.1907738552,45.4696688721]}},{"name":"Skitsch Design Store","address":"via monte piet\u00e0","LAT_WGS84":45.4695109799,"LONG_WGS84":9.1908169737,"geopoint":{"type":"Point","coordinates":[9.1908169737,45.4695109799]}},{"name":"Publicis Modem Italia","address":"Via Alberto Riva Villasanta, 3","LAT_WGS84":45.4786770723,"LONG_WGS84":9.166854069,"geopoint":{"type":"Point","coordinates":[9.166854069,45.4786770723]}},{"name":"Santoni Showroom","address":null,"LAT_WGS84":45.468244,"LONG_WGS84":9.195233,"geopoint":{"type":"Point","coordinates":[9.195233,45.468244]}},{"name":"Zetalab","address":"Via Cola Montano 2","LAT_WGS84":45.487023,"LONG_WGS84":9.185384,"geopoint":{"type":"Point","coordinates":[9.185384,45.487023]}},{"name":"Flying Tiger","address":"Via Meravigli, 1","LAT_WGS84":45.4659447322,"LONG_WGS84":9.184849975,"geopoint":{"type":"Point","coordinates":[9.184849975,45.4659447322]}},{"name":"40 Studio","address":"Via Vittoria Colonna 25","LAT_WGS84":45.4694762407,"LONG_WGS84":9.1523194313,"geopoint":{"type":"Point","coordinates":[9.1523194313,45.4694762407]}},{"name":"arte9milano","address":"9 Via Achille Maiocchi","LAT_WGS84":45.4751187,"LONG_WGS84":9.2125643,"geopoint":{"type":"Point","coordinates":[9.2125643,45.4751187]}},{"name":"l'hub","address":"Ripa di Porta Ticinese 69","LAT_WGS84":45.450499,"LONG_WGS84":9.169066,"geopoint":{"type":"Point","coordinates":[9.169066,45.450499]}},{"name":"Retrosuperfuture HQ","address":"Via Bocconi 7","LAT_WGS84":45.450265,"LONG_WGS84":9.19109,"geopoint":{"type":"Point","coordinates":[9.19109,45.450265]}},{"name":"arcHITects","address":"Viale bligny 41","LAT_WGS84":45.451328323,"LONG_WGS84":9.1950770563,"geopoint":{"type":"Point","coordinates":[9.1950770563,45.451328323]}},{"name":"MUP Design & Service","address":"viale fulvio testi, 70 Milano, Italy","LAT_WGS84":45.5079014521,"LONG_WGS84":9.2024633288,"geopoint":{"type":"Point","coordinates":[9.2024633288,45.5079014521]}},{"name":"Domostyle","address":"via brizi 4","LAT_WGS84":45.4709679636,"LONG_WGS84":9.2409434103,"geopoint":{"type":"Point","coordinates":[9.2409434103,45.4709679636]}},{"name":"OverLite","address":"Via Feltre 32","LAT_WGS84":45.4906500589,"LONG_WGS84":9.2403885934,"geopoint":{"type":"Point","coordinates":[9.2403885934,45.4906500589]}},{"name":"Burning Flame","address":"Via Renato Fucini, 6","LAT_WGS84":45.4784892914,"LONG_WGS84":9.2222285271,"geopoint":{"type":"Point","coordinates":[9.2222285271,45.4784892914]}},{"name":"Apple Piazza Liberty","address":"Piazza Del Liberty, 1","LAT_WGS84":45.4654392,"LONG_WGS84":9.1939855,"geopoint":{"type":"Point","coordinates":[9.1939855,45.4654392]}},{"name":"Apple Carosello","address":"Centro Commerciale Carosello","LAT_WGS84":45.545613,"LONG_WGS84":9.327498,"geopoint":{"type":"Point","coordinates":[9.327498,45.545613]}},{"name":"Mixel","address":"via San Michele del Carso 39","LAT_WGS84":45.623098,"LONG_WGS84":9.212673,"geopoint":{"type":"Point","coordinates":[9.212673,45.623098]}},{"name":"Architetto Antonio Zardoni","address":"77\/B Via Nazionale dei Giovi","LAT_WGS84":45.6232105,"LONG_WGS84":9.1364217,"geopoint":{"type":"Point","coordinates":[9.1364217,45.6232105]}},{"name":"Ceramiche Restelli","address":null,"LAT_WGS84":45.4819542688,"LONG_WGS84":8.9582583558,"geopoint":{"type":"Point","coordinates":[8.9582583558,45.4819542688]}},{"name":"Immagine23","address":"Via magellano, 3","LAT_WGS84":45.6568898564,"LONG_WGS84":9.1618563292,"geopoint":{"type":"Point","coordinates":[9.1618563292,45.6568898564]}},{"name":"P.D.A. Srl","address":"Piazza Matteotti","LAT_WGS84":45.5706397431,"LONG_WGS84":8.92919451,"geopoint":{"type":"Point","coordinates":[8.92919451,45.5706397431]}},{"name":"Walter Meregalli Comunicazione & Design Grafico","address":"Via giovanni da procida 14","LAT_WGS84":45.480533,"LONG_WGS84":9.161785,"geopoint":{"type":"Point","coordinates":[9.161785,45.480533]}},{"name":"Ricci Casa","address":"Via Emilia","LAT_WGS84":45.1240998153,"LONG_WGS84":9.6855500552,"geopoint":{"type":"Point","coordinates":[9.6855500552,45.1240998153]}},{"name":"Modernariato e design","address":"Via Castellazzo 8 int. F","LAT_WGS84":45.5808868858,"LONG_WGS84":9.4441330433,"geopoint":{"type":"Point","coordinates":[9.4441330433,45.5808868858]}},{"name":"TONETTIDESIGN","address":"Via vecchia cremonese","LAT_WGS84":45.3047999,"LONG_WGS84":9.5121388,"geopoint":{"type":"Point","coordinates":[9.5121388,45.3047999]}},{"name":"3dGarage - Bluecast","address":"Corso Italia 25","LAT_WGS84":45.5996829,"LONG_WGS84":9.62235,"geopoint":{"type":"Point","coordinates":[9.62235,45.5996829]}},{"name":"Corti Progetto Natura","address":"Via Galliari, 28\/b","LAT_WGS84":45.5212477704,"LONG_WGS84":9.5896697044,"geopoint":{"type":"Point","coordinates":[9.5896697044,45.5212477704]}},{"name":"TamTamy","address":"Via Castellanza 11","LAT_WGS84":45.5009120672,"LONG_WGS84":9.1096110837,"geopoint":{"type":"Point","coordinates":[9.1096110837,45.5009120672]}},{"name":"Tempi Moderni Design","address":"via seneca 6","LAT_WGS84":45.454236073,"LONG_WGS84":9.208272323,"geopoint":{"type":"Point","coordinates":[9.208272323,45.454236073]}},{"name":"STRAYPEOPLE","address":"Via Edolo 40","LAT_WGS84":45.4941707369,"LONG_WGS84":9.2070723124,"geopoint":{"type":"Point","coordinates":[9.2070723124,45.4941707369]}},{"name":"OVS","address":"Via Spadari 2","LAT_WGS84":45.4633193237,"LONG_WGS84":9.1877280126,"geopoint":{"type":"Point","coordinates":[9.1877280126,45.4633193237]}},{"name":"crea international","address":"Via voghera,7","LAT_WGS84":45.454425,"LONG_WGS84":9.16836,"geopoint":{"type":"Point","coordinates":[9.16836,45.454425]}},{"name":"Moroso","address":"Via Pontaccio 8","LAT_WGS84":45.4728080666,"LONG_WGS84":9.1866161013,"geopoint":{"type":"Point","coordinates":[9.1866161013,45.4728080666]}},{"name":"Blitz Bovisa","address":null,"LAT_WGS84":45.5084503412,"LONG_WGS84":9.1628046673,"geopoint":{"type":"Point","coordinates":[9.1628046673,45.5084503412]}},{"name":"MADE | comunicazione fatta per te","address":"Via Caboto","LAT_WGS84":45.0532683108,"LONG_WGS84":9.4419711828,"geopoint":{"type":"Point","coordinates":[9.4419711828,45.0532683108]}},{"name":"twosides","address":"Via Previati 12","LAT_WGS84":45.4726365513,"LONG_WGS84":9.1501309537,"geopoint":{"type":"Point","coordinates":[9.1501309537,45.4726365513]}},{"name":"D2U - Design to Users","address":"viale San Michele del carso 10","LAT_WGS84":45.4647810591,"LONG_WGS84":9.1640996933,"geopoint":{"type":"Point","coordinates":[9.1640996933,45.4647810591]}},{"name":"GrioniStudio","address":"Via Hayez, 8","LAT_WGS84":45.475299,"LONG_WGS84":9.215729,"geopoint":{"type":"Point","coordinates":[9.215729,45.475299]}},{"name":"Gruppo Pozzi LAB","address":"Via Amendola,8","LAT_WGS84":45.5590770858,"LONG_WGS84":9.4853797874,"geopoint":{"type":"Point","coordinates":[9.4853797874,45.5590770858]}},{"name":"GIADA House","address":"Via Monte Napoleone 15","LAT_WGS84":45.4680749245,"LONG_WGS84":9.1952652619,"geopoint":{"type":"Point","coordinates":[9.1952652619,45.4680749245]}},{"name":"Como Next","address":"via Camillo Benso Conte di Cavour","LAT_WGS84":45.6970745812,"LONG_WGS84":9.0349591693,"geopoint":{"type":"Point","coordinates":[9.0349591693,45.6970745812]}},{"name":"Porro","address":null,"LAT_WGS84":45.7229768563,"LONG_WGS84":9.1204498354,"geopoint":{"type":"Point","coordinates":[9.1204498354,45.7229768563]}}]