[{"name":"NABA Nuova Accademia di Belle Arti","address":"Via Carlo Darwin 20","LAT_WGS84":45.4455447908,"LONG_WGS84":9.1743993759,"geopoint":{"type":"Point","coordinates":[9.1743993759,45.4455447908]}},{"name":"Showroom Artemide","address":"Via Manzoni 12","LAT_WGS84":45.4633358755,"LONG_WGS84":9.1878736515,"geopoint":{"type":"Point","coordinates":[9.1878736515,45.4633358755]}},{"name":"Logotel","address":"Via Giovanni Ventura, 15","LAT_WGS84":45.4845469519,"LONG_WGS84":9.2446294561,"geopoint":{"type":"Point","coordinates":[9.2446294561,45.4845469519]}},{"name":"Domus Academy","address":"Via Mario Pichi, 18","LAT_WGS84":45.4459739642,"LONG_WGS84":9.1750283003,"geopoint":{"type":"Point","coordinates":[9.1750283003,45.4459739642]}},{"name":"Kartell By Laufen","address":"Via Pontaccio, 10","LAT_WGS84":45.47259,"LONG_WGS84":9.18591,"geopoint":{"type":"Point","coordinates":[9.18591,45.47259]}},{"name":"Smith Lumen","address":"Via Tortona, 4","LAT_WGS84":45.45493,"LONG_WGS84":9.16945,"geopoint":{"type":"Point","coordinates":[9.16945,45.45493]}},{"name":"Design Group Italia","address":"Via Aleardo Aleardi, 12","LAT_WGS84":45.4824084376,"LONG_WGS84":9.1744326171,"geopoint":{"type":"Point","coordinates":[9.1744326171,45.4824084376]}},{"name":"Luceplan Store","address":"Corso Monforte 7","LAT_WGS84":45.466639,"LONG_WGS84":9.199081,"geopoint":{"type":"Point","coordinates":[9.199081,45.466639]}},{"name":"Small Things","address":null,"LAT_WGS84":45.4694913233,"LONG_WGS84":9.1846331248,"geopoint":{"type":"Point","coordinates":[9.1846331248,45.4694913233]}},{"name":"Digital Media Partner","address":"Viale Beatrice D'Este 40","LAT_WGS84":45.4520358378,"LONG_WGS84":9.1950146368,"geopoint":{"type":"Point","coordinates":[9.1950146368,45.4520358378]}},{"name":"Momo Design Shop","address":"Galleria San Babila 4\/A","LAT_WGS84":45.46582,"LONG_WGS84":9.197848,"geopoint":{"type":"Point","coordinates":[9.197848,45.46582]}},{"name":"Accurat","address":"Via Lanza 3","LAT_WGS84":45.4714583566,"LONG_WGS84":9.1819342187,"geopoint":{"type":"Point","coordinates":[9.1819342187,45.4714583566]}},{"name":"LOVEThESIGN","address":"via Mecenate 76\/85","LAT_WGS84":45.451743,"LONG_WGS84":9.247817,"geopoint":{"type":"Point","coordinates":[9.247817,45.451743]}},{"name":"Leftloft","address":"Via dall'ongaro 25","LAT_WGS84":45.4671554526,"LONG_WGS84":9.2254394243,"geopoint":{"type":"Point","coordinates":[9.2254394243,45.4671554526]}},{"name":"DINN!","address":null,"LAT_WGS84":45.4452740439,"LONG_WGS84":9.1483754675,"geopoint":{"type":"Point","coordinates":[9.1483754675,45.4452740439]}},{"name":"Break Time Caf\u00e8","address":"via brera 29","LAT_WGS84":45.4726609838,"LONG_WGS84":9.1875050287,"geopoint":{"type":"Point","coordinates":[9.1875050287,45.4726609838]}},{"name":"Bonsaininja Studio","address":null,"LAT_WGS84":45.4766836613,"LONG_WGS84":9.1662365282,"geopoint":{"type":"Point","coordinates":[9.1662365282,45.4766836613]}},{"name":"Nodus","address":null,"LAT_WGS84":45.470763,"LONG_WGS84":9.185143,"geopoint":{"type":"Point","coordinates":[9.185143,45.470763]}},{"name":"Twig srl","address":"Largo Aldo De Benedetti 4","LAT_WGS84":45.4866687825,"LONG_WGS84":9.1946917832,"geopoint":{"type":"Point","coordinates":[9.1946917832,45.4866687825]}},{"name":"Smith Lumen","address":"Via Tortona, 4","LAT_WGS84":45.45493,"LONG_WGS84":9.16945,"geopoint":{"type":"Point","coordinates":[9.16945,45.45493]}},{"name":"Creative Room","address":"Alzaia naviglio grande 72","LAT_WGS84":45.4507885379,"LONG_WGS84":9.1689293914,"geopoint":{"type":"Point","coordinates":[9.1689293914,45.4507885379]}},{"name":"The Visual Agency","address":"Via Bartolomeo Panizza, 7, 20144 Milano","LAT_WGS84":45.4640802789,"LONG_WGS84":9.1630379212,"geopoint":{"type":"Point","coordinates":[9.1630379212,45.4640802789]}},{"name":"RGB FABULOUS LANDSCAPE","address":null,"LAT_WGS84":45.4724851244,"LONG_WGS84":9.184082885,"geopoint":{"type":"Point","coordinates":[9.184082885,45.4724851244]}},{"name":"Metis Lighting s.r.l.","address":null,"LAT_WGS84":45.5002856255,"LONG_WGS84":9.234995842,"geopoint":{"type":"Point","coordinates":[9.234995842,45.5002856255]}},{"name":"Versace S.p.A","address":"Via Borgospesso 15A","LAT_WGS84":45.4706010516,"LONG_WGS84":9.1945484617,"geopoint":{"type":"Point","coordinates":[9.1945484617,45.4706010516]}},{"name":"nssfactory","address":"Via Lesmi, 6","LAT_WGS84":45.4601534557,"LONG_WGS84":9.1738108762,"geopoint":{"type":"Point","coordinates":[9.1738108762,45.4601534557]}},{"name":"Cini&Nils","address":"Via Privata Polidoro da Caravaggio 37","LAT_WGS84":45.500433,"LONG_WGS84":9.135168,"geopoint":{"type":"Point","coordinates":[9.135168,45.500433]}},{"name":"Valli Tessuti","address":"Via Giuseppe Verdi, 2","LAT_WGS84":45.467776,"LONG_WGS84":9.189689,"geopoint":{"type":"Point","coordinates":[9.189689,45.467776]}},{"name":"Bertone Design","address":null,"LAT_WGS84":45.463143,"LONG_WGS84":9.17243,"geopoint":{"type":"Point","coordinates":[9.17243,45.463143]}},{"name":"Black Out Sas Luce e Design","address":"Via dell'Orso, 7\/A","LAT_WGS84":45.4689614958,"LONG_WGS84":9.1865832368,"geopoint":{"type":"Point","coordinates":[9.1865832368,45.4689614958]}},{"name":"Cabiria Brand Universe","address":"Corso Italia 8","LAT_WGS84":45.4593821062,"LONG_WGS84":9.1880703115,"geopoint":{"type":"Point","coordinates":[9.1880703115,45.4593821062]}},{"name":"Wood Design di Claudio Caputo","address":"Via della Resistenza 4","LAT_WGS84":45.397105232,"LONG_WGS84":9.2901259661,"geopoint":{"type":"Point","coordinates":[9.2901259661,45.397105232]}},{"name":"Certiquality srl","address":null,"LAT_WGS84":45.4640954772,"LONG_WGS84":9.1896035989,"geopoint":{"type":"Point","coordinates":[9.1896035989,45.4640954772]}},{"name":"Shiroi Studio","address":"via Morigi 11","LAT_WGS84":45.4792407417,"LONG_WGS84":9.1886325395,"geopoint":{"type":"Point","coordinates":[9.1886325395,45.4792407417]}},{"name":"Jack Club","address":"Via del Bollo, 3","LAT_WGS84":45.461574,"LONG_WGS84":9.185646,"geopoint":{"type":"Point","coordinates":[9.185646,45.461574]}},{"name":"H-57 Creative Station","address":"Via Costanza 9","LAT_WGS84":45.4622843621,"LONG_WGS84":9.1689207218,"geopoint":{"type":"Point","coordinates":[9.1689207218,45.4622843621]}},{"name":"Axer Studio Medico","address":"via Baracchini 1","LAT_WGS84":45.4639,"LONG_WGS84":9.1898,"geopoint":{"type":"Point","coordinates":[9.1898,45.4639]}},{"name":"Air Silent Italia","address":"Via Fumagalli Luigi Don, 30\/B","LAT_WGS84":45.68048,"LONG_WGS84":9.17696,"geopoint":{"type":"Point","coordinates":[9.17696,45.68048]}},{"name":"Total Tool","address":null,"LAT_WGS84":45.487618,"LONG_WGS84":9.195027,"geopoint":{"type":"Point","coordinates":[9.195027,45.487618]}},{"name":"Coppa+Landini","address":null,"LAT_WGS84":45.4966406585,"LONG_WGS84":9.1086042248,"geopoint":{"type":"Point","coordinates":[9.1086042248,45.4966406585]}},{"name":"Certiquality srl","address":null,"LAT_WGS84":45.4640954772,"LONG_WGS84":9.1896035989,"geopoint":{"type":"Point","coordinates":[9.1896035989,45.4640954772]}},{"name":"Gruppo Consiliare MoVimento 5 Stelle di Milano","address":null,"LAT_WGS84":45.465815,"LONG_WGS84":9.18993,"geopoint":{"type":"Point","coordinates":[9.18993,45.465815]}},{"name":"development area mind agency","address":"piazza san sepolcro 1","LAT_WGS84":45.4628697674,"LONG_WGS84":9.1854956746,"geopoint":{"type":"Point","coordinates":[9.1854956746,45.4628697674]}},{"name":"Alkanoids","address":"Via Pollaiuolo 15","LAT_WGS84":45.480898,"LONG_WGS84":9.21047,"geopoint":{"type":"Point","coordinates":[9.21047,45.480898]}},{"name":"CBA designing brands with heart (WPP group)","address":"via Lecce, 4","LAT_WGS84":45.44592115,"LONG_WGS84":9.1812953353,"geopoint":{"type":"Point","coordinates":[9.1812953353,45.44592115]}},{"name":"Dg Mosaic","address":null,"LAT_WGS84":45.467435,"LONG_WGS84":8.854088,"geopoint":{"type":"Point","coordinates":[8.854088,45.467435]}},{"name":"Taolo's Web Agency - sede di Milano","address":null,"LAT_WGS84":45.4768312966,"LONG_WGS84":9.1886146173,"geopoint":{"type":"Point","coordinates":[9.1886146173,45.4768312966]}},{"name":"Material Connexion Italia","address":null,"LAT_WGS84":45.523806,"LONG_WGS84":9.220341,"geopoint":{"type":"Point","coordinates":[9.220341,45.523806]}},{"name":"Axer Studio Medico","address":"via Baracchini 1","LAT_WGS84":45.4639,"LONG_WGS84":9.1898,"geopoint":{"type":"Point","coordinates":[9.1898,45.4639]}},{"name":"Brera design district","address":null,"LAT_WGS84":45.471020741,"LONG_WGS84":9.1847012438,"geopoint":{"type":"Point","coordinates":[9.1847012438,45.471020741]}},{"name":"Trading Group srl","address":"Via Morimondo 26","LAT_WGS84":45.4452649458,"LONG_WGS84":9.1494044269,"geopoint":{"type":"Point","coordinates":[9.1494044269,45.4452649458]}},{"name":"The Italian artists of the Acacia collection","address":null,"LAT_WGS84":45.4645272346,"LONG_WGS84":9.189424862,"geopoint":{"type":"Point","coordinates":[9.189424862,45.4645272346]}},{"name":"Design Innovation Srl","address":"Viale Abruzzi 13","LAT_WGS84":45.4758038195,"LONG_WGS84":9.2166653099,"geopoint":{"type":"Point","coordinates":[9.2166653099,45.4758038195]}},{"name":"Lovli.it","address":"Via Forcella 13","LAT_WGS84":45.451649,"LONG_WGS84":9.167533,"geopoint":{"type":"Point","coordinates":[9.167533,45.451649]}},{"name":"Certiquality srl","address":null,"LAT_WGS84":45.4640954772,"LONG_WGS84":9.1896035989,"geopoint":{"type":"Point","coordinates":[9.1896035989,45.4640954772]}},{"name":"Nascent Design Srl","address":"Via Bramante 29","LAT_WGS84":45.481332506,"LONG_WGS84":9.1790353068,"geopoint":{"type":"Point","coordinates":[9.1790353068,45.481332506]}},{"name":"Narai","address":"Via Francesco Koristka, 3","LAT_WGS84":45.486741213,"LONG_WGS84":9.1634532809,"geopoint":{"type":"Point","coordinates":[9.1634532809,45.486741213]}},{"name":"Jolie Advertising","address":"piazza Velasca 6","LAT_WGS84":45.4637181982,"LONG_WGS84":9.1877275388,"geopoint":{"type":"Point","coordinates":[9.1877275388,45.4637181982]}},{"name":"Mediafriends s.r.l.","address":"Viale Papiniano 49","LAT_WGS84":45.4572719893,"LONG_WGS84":9.1719173363,"geopoint":{"type":"Point","coordinates":[9.1719173363,45.4572719893]}},{"name":"Hotel La Bergamina","address":null,"LAT_WGS84":45.609492,"LONG_WGS84":9.329888,"geopoint":{"type":"Point","coordinates":[9.329888,45.609492]}},{"name":"Lettergram","address":null,"LAT_WGS84":45.4860076904,"LONG_WGS84":9.1883602142,"geopoint":{"type":"Point","coordinates":[9.1883602142,45.4860076904]}},{"name":"Studio B612","address":"Viale Francesco Crispi 17","LAT_WGS84":45.4807196021,"LONG_WGS84":9.1828494857,"geopoint":{"type":"Point","coordinates":[9.1828494857,45.4807196021]}},{"name":"Hi Cube","address":"Via Rugabella 1","LAT_WGS84":45.4593087475,"LONG_WGS84":9.1899729418,"geopoint":{"type":"Point","coordinates":[9.1899729418,45.4593087475]}},{"name":"Crea International","address":"Via Olmetto, 9","LAT_WGS84":45.459468,"LONG_WGS84":9.185608,"geopoint":{"type":"Point","coordinates":[9.185608,45.459468]}},{"name":"Studio Armad'illo","address":null,"LAT_WGS84":45.454598,"LONG_WGS84":9.172742,"geopoint":{"type":"Point","coordinates":[9.172742,45.454598]}},{"name":"Dipartimento di Scienze Penalistiche Cesare Beccaria","address":"Via Festa del Perdono 7","LAT_WGS84":45.4607745933,"LONG_WGS84":9.1942204572,"geopoint":{"type":"Point","coordinates":[9.1942204572,45.4607745933]}},{"name":"ASPS Design Studio","address":"corso di Porta Romana 23","LAT_WGS84":45.4586387347,"LONG_WGS84":9.1919356585,"geopoint":{"type":"Point","coordinates":[9.1919356585,45.4586387347]}},{"name":"Curious Design","address":null,"LAT_WGS84":45.464548,"LONG_WGS84":9.182661,"geopoint":{"type":"Point","coordinates":[9.182661,45.464548]}},{"name":"Axer Studio Medico","address":"via Baracchini 1","LAT_WGS84":45.4639,"LONG_WGS84":9.1898,"geopoint":{"type":"Point","coordinates":[9.1898,45.4639]}},{"name":"Milano","address":null,"LAT_WGS84":45.4641038371,"LONG_WGS84":9.1898488998,"geopoint":{"type":"Point","coordinates":[9.1898488998,45.4641038371]}},{"name":"United Pets srl","address":"Viale Certosa 46","LAT_WGS84":45.4911372991,"LONG_WGS84":9.1489299783,"geopoint":{"type":"Point","coordinates":[9.1489299783,45.4911372991]}},{"name":"Studio Guarnieri Milano","address":"Piazza Duomo, 19","LAT_WGS84":45.46484,"LONG_WGS84":9.188576,"geopoint":{"type":"Point","coordinates":[9.188576,45.46484]}},{"name":"21am","address":"Via Tortona 72","LAT_WGS84":45.4511628237,"LONG_WGS84":9.1591014596,"geopoint":{"type":"Point","coordinates":[9.1591014596,45.4511628237]}},{"name":"Piazza del Duomo","address":"Piazza del Duomo","LAT_WGS84":45.4641903715,"LONG_WGS84":9.1895270348,"geopoint":{"type":"Point","coordinates":[9.1895270348,45.4641903715]}},{"name":"Certiquality srl","address":null,"LAT_WGS84":45.4640954772,"LONG_WGS84":9.1896035989,"geopoint":{"type":"Point","coordinates":[9.1896035989,45.4640954772]}},{"name":"Lavanderia L'Obl\u00f2 Magico","address":"Via Ticino, 9","LAT_WGS84":45.4356148199,"LONG_WGS84":9.0966252198,"geopoint":{"type":"Point","coordinates":[9.0966252198,45.4356148199]}},{"name":"Fantini Mosaici","address":"Via Privata Antonio Meucci, 19","LAT_WGS84":45.50947,"LONG_WGS84":9.24555,"geopoint":{"type":"Point","coordinates":[9.24555,45.50947]}},{"name":"El Cervell\u00e8e","address":null,"LAT_WGS84":45.4516996867,"LONG_WGS84":9.174157666,"geopoint":{"type":"Point","coordinates":[9.174157666,45.4516996867]}},{"name":"Six Lands S.r.l. - Impresa Pulizie Milano","address":"Viale Tibaldi, 66","LAT_WGS84":45.4446264637,"LONG_WGS84":9.1841840744,"geopoint":{"type":"Point","coordinates":[9.1841840744,45.4446264637]}},{"name":"Milano","address":null,"LAT_WGS84":45.4641038371,"LONG_WGS84":9.1898488998,"geopoint":{"type":"Point","coordinates":[9.1898488998,45.4641038371]}},{"name":"Fullscream","address":"Via Giordano Bruno 12","LAT_WGS84":45.481276,"LONG_WGS84":9.175676,"geopoint":{"type":"Point","coordinates":[9.175676,45.481276]}},{"name":"Isao Hosoe Design","address":"Via Voghera 11","LAT_WGS84":45.4523582149,"LONG_WGS84":9.1680121152,"geopoint":{"type":"Point","coordinates":[9.1680121152,45.4523582149]}},{"name":"Top Missori Milano","address":"piazza guiseppe missori 3","LAT_WGS84":45.460443,"LONG_WGS84":9.188747,"geopoint":{"type":"Point","coordinates":[9.188747,45.460443]}},{"name":"Assessore Comune Di Milano Assessorato alla Trasformazione Digitale e Servizi Civici","address":null,"LAT_WGS84":45.462188,"LONG_WGS84":9.191252,"geopoint":{"type":"Point","coordinates":[9.191252,45.462188]}},{"name":"Limiteazero","address":"Via Privata Massimiano 25","LAT_WGS84":45.4835718687,"LONG_WGS84":9.2441195944,"geopoint":{"type":"Point","coordinates":[9.2441195944,45.4835718687]}},{"name":"The Bagel Factory","address":"Piazza XXIV Maggio 1\/8","LAT_WGS84":45.4528443878,"LONG_WGS84":9.1805921273,"geopoint":{"type":"Point","coordinates":[9.1805921273,45.4528443878]}},{"name":"Dome Milano Interior","address":"Via San Marco, 1","LAT_WGS84":45.473589,"LONG_WGS84":9.187826,"geopoint":{"type":"Point","coordinates":[9.187826,45.473589]}},{"name":"The Bagel Factory","address":"Piazza XXIV Maggio 1\/8","LAT_WGS84":45.4528443878,"LONG_WGS84":9.1805921273,"geopoint":{"type":"Point","coordinates":[9.1805921273,45.4528443878]}},{"name":"Milano Ski Lab","address":null,"LAT_WGS84":45.456513,"LONG_WGS84":9.162226,"geopoint":{"type":"Point","coordinates":[9.162226,45.456513]}},{"name":"Certiquality srl","address":null,"LAT_WGS84":45.4640954772,"LONG_WGS84":9.1896035989,"geopoint":{"type":"Point","coordinates":[9.1896035989,45.4640954772]}},{"name":"Mediafriends s.r.l.","address":"Viale Papiniano 49","LAT_WGS84":45.4572719893,"LONG_WGS84":9.1719173363,"geopoint":{"type":"Point","coordinates":[9.1719173363,45.4572719893]}},{"name":"Lema - Marketing & Graphic design","address":null,"LAT_WGS84":45.4643596775,"LONG_WGS84":9.1901063919,"geopoint":{"type":"Point","coordinates":[9.1901063919,45.4643596775]}},{"name":"Shicon","address":"Via col di lana","LAT_WGS84":45.450892,"LONG_WGS84":9.18389,"geopoint":{"type":"Point","coordinates":[9.18389,45.450892]}},{"name":"The Luxury Italian Brands","address":"Corso Monforte, 15","LAT_WGS84":45.4671496808,"LONG_WGS84":9.1962171838,"geopoint":{"type":"Point","coordinates":[9.1962171838,45.4671496808]}},{"name":"The Pomo","address":"via Giuseppe Sirtori, 6","LAT_WGS84":45.4729493274,"LONG_WGS84":9.2082001279,"geopoint":{"type":"Point","coordinates":[9.2082001279,45.4729493274]}},{"name":"Ghost Architects","address":"Via Desenzano 6","LAT_WGS84":45.4628242012,"LONG_WGS84":9.1400068288,"geopoint":{"type":"Point","coordinates":[9.1400068288,45.4628242012]}},{"name":"Studio Legale Gallizia","address":"Via Cusani 10","LAT_WGS84":45.4688682556,"LONG_WGS84":9.1839017868,"geopoint":{"type":"Point","coordinates":[9.1839017868,45.4688682556]}},{"name":"Lema - Marketing & Graphic design","address":null,"LAT_WGS84":45.4643596775,"LONG_WGS84":9.1901063919,"geopoint":{"type":"Point","coordinates":[9.1901063919,45.4643596775]}},{"name":"Atabaliba Studio","address":"Via Alserio 23","LAT_WGS84":45.4908103118,"LONG_WGS84":9.1873705387,"geopoint":{"type":"Point","coordinates":[9.1873705387,45.4908103118]}},{"name":"Showroom CC Tapis","address":"Piazza Santo Stefano 10","LAT_WGS84":45.461998,"LONG_WGS84":9.194665,"geopoint":{"type":"Point","coordinates":[9.194665,45.461998]}},{"name":"dotfarm SRLs","address":"Corso Magenta, 42","LAT_WGS84":45.4658890519,"LONG_WGS84":9.1753944755,"geopoint":{"type":"Point","coordinates":[9.1753944755,45.4658890519]}},{"name":"M.d.c. Srl","address":"Via Francesco Sforza 1","LAT_WGS84":45.4632961854,"LONG_WGS84":9.1992517396,"geopoint":{"type":"Point","coordinates":[9.1992517396,45.4632961854]}},{"name":"Axer Studio Medico","address":"via Baracchini 1","LAT_WGS84":45.4639,"LONG_WGS84":9.1898,"geopoint":{"type":"Point","coordinates":[9.1898,45.4639]}},{"name":"MACSIOTTI srl","address":"Via Giacomo Watt 32","LAT_WGS84":45.443595,"LONG_WGS84":9.150772,"geopoint":{"type":"Point","coordinates":[9.150772,45.443595]}},{"name":"Display.","address":"Via Boltraffio 10","LAT_WGS84":45.491593,"LONG_WGS84":9.186458,"geopoint":{"type":"Point","coordinates":[9.186458,45.491593]}},{"name":"Uno Communications S.p.A.","address":"3 Via Carlo De Angeli","LAT_WGS84":45.443256,"LONG_WGS84":9.195489,"geopoint":{"type":"Point","coordinates":[9.195489,45.443256]}},{"name":"Stazione Milano Porta Garibaldi","address":"Piazza Sigmund Freud 1","LAT_WGS84":45.4846727803,"LONG_WGS84":9.1873470816,"geopoint":{"type":"Point","coordinates":[9.1873470816,45.4846727803]}},{"name":"Casa degli Atellani","address":"Corso Magenta 65","LAT_WGS84":45.4655050777,"LONG_WGS84":9.1710379025,"geopoint":{"type":"Point","coordinates":[9.1710379025,45.4655050777]}},{"name":"Studio AI - studio associato architettura e design","address":null,"LAT_WGS84":45.5449,"LONG_WGS84":8.9964,"geopoint":{"type":"Point","coordinates":[8.9964,45.5449]}},{"name":"Associazione Culturale Cinese Xiaode","address":"Via Andrea Mantegna 4","LAT_WGS84":45.482835429,"LONG_WGS84":9.1688914597,"geopoint":{"type":"Point","coordinates":[9.1688914597,45.482835429]}},{"name":"ERIC EGAN INTERIOR DESIGN","address":"Piazza Castello 5","LAT_WGS84":45.4684379169,"LONG_WGS84":9.1804786026,"geopoint":{"type":"Point","coordinates":[9.1804786026,45.4684379169]}},{"name":"Blu Sign","address":null,"LAT_WGS84":45.44398,"LONG_WGS84":9.152738,"geopoint":{"type":"Point","coordinates":[9.152738,45.44398]}},{"name":"Studio Sowden","address":null,"LAT_WGS84":45.478137,"LONG_WGS84":9.193522,"geopoint":{"type":"Point","coordinates":[9.193522,45.478137]}},{"name":"Orange ID","address":"Via F.lli Cervi, Residenza Cedri","LAT_WGS84":45.498776,"LONG_WGS84":9.265233,"geopoint":{"type":"Point","coordinates":[9.265233,45.498776]}},{"name":"Studio Makio Hasuike","address":null,"LAT_WGS84":45.450214,"LONG_WGS84":9.181115,"geopoint":{"type":"Point","coordinates":[9.181115,45.450214]}},{"name":"Digital Natives","address":"Via Savona 26","LAT_WGS84":45.455942,"LONG_WGS84":9.16897,"geopoint":{"type":"Point","coordinates":[9.16897,45.455942]}},{"name":"Maestri Make Up Studio","address":"Via Flavio Baracchini, 9","LAT_WGS84":45.4613876343,"LONG_WGS84":9.1912469864,"geopoint":{"type":"Point","coordinates":[9.1912469864,45.4613876343]}},{"name":"TEXAL S.P.A.","address":"Via Brianza, 6","LAT_WGS84":45.7580322797,"LONG_WGS84":9.2320561409,"geopoint":{"type":"Point","coordinates":[9.2320561409,45.7580322797]}},{"name":"Milan Art & Events Center","address":"Via Lupetta 3","LAT_WGS84":45.462184906,"LONG_WGS84":9.1863670349,"geopoint":{"type":"Point","coordinates":[9.1863670349,45.462184906]}},{"name":"Migjorn Plaza & SPA Resort","address":null,"LAT_WGS84":45.46564,"LONG_WGS84":9.1921,"geopoint":{"type":"Point","coordinates":[9.1921,45.46564]}},{"name":"ASPS Design Studio","address":"corso di Porta Romana 23","LAT_WGS84":45.4586387347,"LONG_WGS84":9.1919356585,"geopoint":{"type":"Point","coordinates":[9.1919356585,45.4586387347]}},{"name":"Mediafriends s.r.l.","address":"Viale Papiniano 49","LAT_WGS84":45.4572719893,"LONG_WGS84":9.1719173363,"geopoint":{"type":"Point","coordinates":[9.1719173363,45.4572719893]}},{"name":"Kaleidos Finance","address":null,"LAT_WGS84":45.4673097261,"LONG_WGS84":9.1948554002,"geopoint":{"type":"Point","coordinates":[9.1948554002,45.4673097261]}},{"name":"Certiquality srl","address":null,"LAT_WGS84":45.4640954772,"LONG_WGS84":9.1896035989,"geopoint":{"type":"Point","coordinates":[9.1896035989,45.4640954772]}},{"name":"Labo.Art","address":"via Pietro Maroncelli 14","LAT_WGS84":45.4825401929,"LONG_WGS84":9.1832220314,"geopoint":{"type":"Point","coordinates":[9.1832220314,45.4825401929]}},{"name":"Nascent Design Srl","address":"Via Bramante 29","LAT_WGS84":45.481332506,"LONG_WGS84":9.1790353068,"geopoint":{"type":"Point","coordinates":[9.1790353068,45.481332506]}},{"name":"Milano","address":null,"LAT_WGS84":45.4641038371,"LONG_WGS84":9.1898488998,"geopoint":{"type":"Point","coordinates":[9.1898488998,45.4641038371]}},{"name":"ASPS Design Studio","address":"corso di Porta Romana 23","LAT_WGS84":45.4586387347,"LONG_WGS84":9.1919356585,"geopoint":{"type":"Point","coordinates":[9.1919356585,45.4586387347]}},{"name":"Vectorealism Factory","address":"via Boncompagni 57","LAT_WGS84":45.4381027222,"LONG_WGS84":9.2317695618,"geopoint":{"type":"Point","coordinates":[9.2317695618,45.4381027222]}},{"name":"MANUGANDA Contemporary Jewellery","address":"Via ripamonti 33","LAT_WGS84":45.4469802538,"LONG_WGS84":9.1979640424,"geopoint":{"type":"Point","coordinates":[9.1979640424,45.4469802538]}},{"name":"Lema - Marketing & Graphic design","address":null,"LAT_WGS84":45.4643596775,"LONG_WGS84":9.1901063919,"geopoint":{"type":"Point","coordinates":[9.1901063919,45.4643596775]}},{"name":"Design Group Italia","address":"Via Aleardo Aleardi, 12","LAT_WGS84":45.4824084376,"LONG_WGS84":9.1744326171,"geopoint":{"type":"Point","coordinates":[9.1744326171,45.4824084376]}},{"name":"Bar Al Borromeo","address":null,"LAT_WGS84":45.4631758525,"LONG_WGS84":9.1827371717,"geopoint":{"type":"Point","coordinates":[9.1827371717,45.4631758525]}},{"name":"Patterns digital agency","address":"Via Castel Morrone 17","LAT_WGS84":45.470266,"LONG_WGS84":9.214708,"geopoint":{"type":"Point","coordinates":[9.214708,45.470266]}},{"name":"The Bagel Factory","address":"Piazza XXIV Maggio 1\/8","LAT_WGS84":45.4528443878,"LONG_WGS84":9.1805921273,"geopoint":{"type":"Point","coordinates":[9.1805921273,45.4528443878]}},{"name":"Certiquality srl","address":null,"LAT_WGS84":45.4640954772,"LONG_WGS84":9.1896035989,"geopoint":{"type":"Point","coordinates":[9.1896035989,45.4640954772]}},{"name":"MI AMI Festival","address":null,"LAT_WGS84":45.4642035,"LONG_WGS84":9.189982,"geopoint":{"type":"Point","coordinates":[9.189982,45.4642035]}},{"name":"IMPIANTI FOTOVOLTAICI PIEMONTE - ALMA SVILUPPO SRL","address":"VIA FELICE CAVALLOTTI 15","LAT_WGS84":45.4633934981,"LONG_WGS84":9.198419094,"geopoint":{"type":"Point","coordinates":[9.198419094,45.4633934981]}},{"name":"Paolo Moretti","address":null,"LAT_WGS84":45.464345,"LONG_WGS84":9.189193,"geopoint":{"type":"Point","coordinates":[9.189193,45.464345]}},{"name":"D'alesio&Santoro studio","address":"Via cagliero, 9","LAT_WGS84":45.495111,"LONG_WGS84":9.207065,"geopoint":{"type":"Point","coordinates":[9.207065,45.495111]}},{"name":"Caff\u00e8 Milani","address":null,"LAT_WGS84":45.4678359209,"LONG_WGS84":9.1896790053,"geopoint":{"type":"Point","coordinates":[9.1896790053,45.4678359209]}},{"name":"Arata Isozaki & Andrea Maffei Associati","address":"Via Brera 9","LAT_WGS84":45.4700346222,"LONG_WGS84":9.1876638264,"geopoint":{"type":"Point","coordinates":[9.1876638264,45.4700346222]}},{"name":"Apartment Gallery","address":"Via Palermo 5","LAT_WGS84":45.47473,"LONG_WGS84":9.184919,"geopoint":{"type":"Point","coordinates":[9.184919,45.47473]}},{"name":"Axer Studio Medico","address":"via Baracchini 1","LAT_WGS84":45.4639,"LONG_WGS84":9.1898,"geopoint":{"type":"Point","coordinates":[9.1898,45.4639]}},{"name":"The Dots","address":"Via Gaspare Bugatti","LAT_WGS84":45.4519567875,"LONG_WGS84":9.1667330718,"geopoint":{"type":"Point","coordinates":[9.1667330718,45.4519567875]}},{"name":"Creative Council","address":null,"LAT_WGS84":45.468081,"LONG_WGS84":9.192032,"geopoint":{"type":"Point","coordinates":[9.192032,45.468081]}},{"name":"Fermata autobus 54 Baracchini - Da Cannobbio","address":"via Baracchini","LAT_WGS84":45.4616939898,"LONG_WGS84":9.1906347871,"geopoint":{"type":"Point","coordinates":[9.1906347871,45.4616939898]}},{"name":"Axer Studio Medico","address":"via Baracchini 1","LAT_WGS84":45.4639,"LONG_WGS84":9.1898,"geopoint":{"type":"Point","coordinates":[9.1898,45.4639]}},{"name":"Design Supermarket","address":"Piazza del Duomo","LAT_WGS84":45.4647218398,"LONG_WGS84":9.1917040598,"geopoint":{"type":"Point","coordinates":[9.1917040598,45.4647218398]}},{"name":"Lema - Marketing & Graphic design","address":null,"LAT_WGS84":45.4643596775,"LONG_WGS84":9.1901063919,"geopoint":{"type":"Point","coordinates":[9.1901063919,45.4643596775]}},{"name":"Studio di Psicologia - Martini Associati","address":"Via Lucania 16","LAT_WGS84":45.442024231,"LONG_WGS84":9.224524498,"geopoint":{"type":"Point","coordinates":[9.224524498,45.442024231]}},{"name":"Terry's Bar","address":null,"LAT_WGS84":45.490372,"LONG_WGS84":9.181417,"geopoint":{"type":"Point","coordinates":[9.181417,45.490372]}},{"name":"Nascent Design Srl","address":"Via Bramante 29","LAT_WGS84":45.481332506,"LONG_WGS84":9.1790353068,"geopoint":{"type":"Point","coordinates":[9.1790353068,45.481332506]}},{"name":"Nucleo Ambiente Polizia Locale Milano","address":"Piazza Duomo 21","LAT_WGS84":45.464543,"LONG_WGS84":9.189902,"geopoint":{"type":"Point","coordinates":[9.189902,45.464543]}},{"name":"Atelier Biagetti","address":"Piazza Acole 4","LAT_WGS84":45.4503771393,"LONG_WGS84":9.1719977903,"geopoint":{"type":"Point","coordinates":[9.1719977903,45.4503771393]}},{"name":"Studio Fifield","address":"Via Colletta 69","LAT_WGS84":45.447252094,"LONG_WGS84":9.2160590297,"geopoint":{"type":"Point","coordinates":[9.2160590297,45.447252094]}},{"name":"Certiquality srl","address":null,"LAT_WGS84":45.4640954772,"LONG_WGS84":9.1896035989,"geopoint":{"type":"Point","coordinates":[9.1896035989,45.4640954772]}},{"name":"Lema - Marketing & Graphic design","address":null,"LAT_WGS84":45.4643596775,"LONG_WGS84":9.1901063919,"geopoint":{"type":"Point","coordinates":[9.1901063919,45.4643596775]}},{"name":"Brera design district","address":null,"LAT_WGS84":45.471020741,"LONG_WGS84":9.1847012438,"geopoint":{"type":"Point","coordinates":[9.1847012438,45.471020741]}},{"name":"Martina Grassi","address":null,"LAT_WGS84":45.47859997,"LONG_WGS84":9.2137029379,"geopoint":{"type":"Point","coordinates":[9.2137029379,45.47859997]}},{"name":"Straypeople","address":"Via Carlo Imbonati, 4","LAT_WGS84":45.498861,"LONG_WGS84":9.18474,"geopoint":{"type":"Point","coordinates":[9.18474,45.498861]}},{"name":"Henrytimi","address":null,"LAT_WGS84":45.4714676517,"LONG_WGS84":9.1828438974,"geopoint":{"type":"Point","coordinates":[9.1828438974,45.4714676517]}},{"name":"Spazio Plana \/ grandesignEtico","address":"P.le Cadorna, 2","LAT_WGS84":45.4685799962,"LONG_WGS84":9.1782937262,"geopoint":{"type":"Point","coordinates":[9.1782937262,45.4685799962]}},{"name":"The Blink Fish","address":"Via Donizetti, 4","LAT_WGS84":45.46297,"LONG_WGS84":9.20534,"geopoint":{"type":"Point","coordinates":[9.20534,45.46297]}},{"name":"Monumento A Vittorio Emanuele II","address":"Piazza Del Duomo","LAT_WGS84":45.4641898394,"LONG_WGS84":9.1894582963,"geopoint":{"type":"Point","coordinates":[9.1894582963,45.4641898394]}},{"name":"Very Creative People, Digital Creative Agency (Milan HQ)","address":"Via Belgirate","LAT_WGS84":45.4937585324,"LONG_WGS84":9.2045903206,"geopoint":{"type":"Point","coordinates":[9.2045903206,45.4937585324]}},{"name":"Certiquality srl","address":null,"LAT_WGS84":45.4640954772,"LONG_WGS84":9.1896035989,"geopoint":{"type":"Point","coordinates":[9.1896035989,45.4640954772]}},{"name":"High Class Leather Design & Production","address":"Via Tortona","LAT_WGS84":45.451736,"LONG_WGS84":9.164298,"geopoint":{"type":"Point","coordinates":[9.164298,45.451736]}},{"name":"IFDA Italian Fashion & Design Academy","address":"Via Tortona 35","LAT_WGS84":45.4501211489,"LONG_WGS84":9.1600549221,"geopoint":{"type":"Point","coordinates":[9.1600549221,45.4501211489]}},{"name":"Yatta!","address":"Viale Pasubio, 14","LAT_WGS84":45.4819591078,"LONG_WGS84":9.1833527017,"geopoint":{"type":"Point","coordinates":[9.1833527017,45.4819591078]}},{"name":"Certiquality srl","address":null,"LAT_WGS84":45.4640954772,"LONG_WGS84":9.1896035989,"geopoint":{"type":"Point","coordinates":[9.1896035989,45.4640954772]}},{"name":"ASPS Design Studio","address":"corso di Porta Romana 23","LAT_WGS84":45.4586387347,"LONG_WGS84":9.1919356585,"geopoint":{"type":"Point","coordinates":[9.1919356585,45.4586387347]}},{"name":"Maxim Milan Design Center","address":null,"LAT_WGS84":45.3943965712,"LONG_WGS84":9.1481335659,"geopoint":{"type":"Point","coordinates":[9.1481335659,45.3943965712]}},{"name":"a Santa Lucia","address":"Via San Pietro all'Orto 3","LAT_WGS84":45.4658023873,"LONG_WGS84":9.1957590693,"geopoint":{"type":"Point","coordinates":[9.1957590693,45.4658023873]}},{"name":"Certiquality srl","address":null,"LAT_WGS84":45.4640954772,"LONG_WGS84":9.1896035989,"geopoint":{"type":"Point","coordinates":[9.1896035989,45.4640954772]}},{"name":"Studio Dentistico San Paolo","address":"Via San Paolo 15","LAT_WGS84":45.465674,"LONG_WGS84":9.193523,"geopoint":{"type":"Point","coordinates":[9.193523,45.465674]}},{"name":"Mediafriends s.r.l.","address":"Viale Papiniano 49","LAT_WGS84":45.4572719893,"LONG_WGS84":9.1719173363,"geopoint":{"type":"Point","coordinates":[9.1719173363,45.4572719893]}},{"name":"Milano Fashion Design House","address":"Piazzetta Liberty","LAT_WGS84":45.4654580878,"LONG_WGS84":9.1941961551,"geopoint":{"type":"Point","coordinates":[9.1941961551,45.4654580878]}},{"name":"Home Made","address":"Via Tortona 12","LAT_WGS84":45.4541790842,"LONG_WGS84":9.168485937,"geopoint":{"type":"Point","coordinates":[9.168485937,45.4541790842]}},{"name":"Spazio Rossana Orlandi","address":"Via Matteo Bandello 14-16","LAT_WGS84":45.4638117245,"LONG_WGS84":9.1667218642,"geopoint":{"type":"Point","coordinates":[9.1667218642,45.4638117245]}},{"name":"pizza d'ok e la creperia","address":"via fratelli bressan 44","LAT_WGS84":45.46427,"LONG_WGS84":9.18951,"geopoint":{"type":"Point","coordinates":[9.18951,45.46427]}},{"name":"Maestri Make Up Studio","address":"Via Flavio Baracchini, 9","LAT_WGS84":45.4613876343,"LONG_WGS84":9.1912469864,"geopoint":{"type":"Point","coordinates":[9.1912469864,45.4613876343]}},{"name":"De-signum Studio Lab","address":null,"LAT_WGS84":45.457418,"LONG_WGS84":9.217404,"geopoint":{"type":"Point","coordinates":[9.217404,45.457418]}},{"name":"Lema - Marketing & Graphic design","address":null,"LAT_WGS84":45.4643596775,"LONG_WGS84":9.1901063919,"geopoint":{"type":"Point","coordinates":[9.1901063919,45.4643596775]}},{"name":"BL Banca di Legnano, gruppo bpm (Banca Popolare di Milano)","address":"Viale Vittoria 23","LAT_WGS84":45.6662558265,"LONG_WGS84":8.8727058101,"geopoint":{"type":"Point","coordinates":[8.8727058101,45.6662558265]}},{"name":"IL 10 Milano","address":"Corso Italia 49","LAT_WGS84":45.4525546987,"LONG_WGS84":9.1867565475,"geopoint":{"type":"Point","coordinates":[9.1867565475,45.4525546987]}},{"name":"FDM Document Dynamics S.r.l.","address":"Via Valtorta 47","LAT_WGS84":45.5002279067,"LONG_WGS84":9.2280502617,"geopoint":{"type":"Point","coordinates":[9.2280502617,45.5002279067]}},{"name":"Keep Temporary Store Outlet","address":"Via Alessandro Manzoni, 40","LAT_WGS84":45.47132,"LONG_WGS84":9.19409,"geopoint":{"type":"Point","coordinates":[9.19409,45.47132]}},{"name":"Certiquality srl","address":null,"LAT_WGS84":45.4640954772,"LONG_WGS84":9.1896035989,"geopoint":{"type":"Point","coordinates":[9.1896035989,45.4640954772]}},{"name":"Milano","address":null,"LAT_WGS84":45.4641038371,"LONG_WGS84":9.1898488998,"geopoint":{"type":"Point","coordinates":[9.1898488998,45.4641038371]}},{"name":"ASPS Design Studio","address":"corso di Porta Romana 23","LAT_WGS84":45.4586387347,"LONG_WGS84":9.1919356585,"geopoint":{"type":"Point","coordinates":[9.1919356585,45.4586387347]}},{"name":"Milano","address":null,"LAT_WGS84":45.4641038371,"LONG_WGS84":9.1898488998,"geopoint":{"type":"Point","coordinates":[9.1898488998,45.4641038371]}},{"name":"Naked Italian Bags","address":"c\/o Via Ascanio Sforza 17","LAT_WGS84":45.4651873883,"LONG_WGS84":9.1909217834,"geopoint":{"type":"Point","coordinates":[9.1909217834,45.4651873883]}},{"name":"Junk Food srl - Lost In Fashion.it","address":"Via V.Foppa 46","LAT_WGS84":45.456537225,"LONG_WGS84":9.1568129,"geopoint":{"type":"Point","coordinates":[9.1568129,45.456537225]}},{"name":"Non ti scusa nessuno.","address":null,"LAT_WGS84":45.6173744202,"LONG_WGS84":8.6056623459,"geopoint":{"type":"Point","coordinates":[8.6056623459,45.6173744202]}},{"name":"Lema - Marketing & Graphic design","address":null,"LAT_WGS84":45.4643596775,"LONG_WGS84":9.1901063919,"geopoint":{"type":"Point","coordinates":[9.1901063919,45.4643596775]}},{"name":"Samsonite Design Office","address":"Torre Tonda","LAT_WGS84":45.52657,"LONG_WGS84":9.230943,"geopoint":{"type":"Point","coordinates":[9.230943,45.52657]}},{"name":"Associazione Culturale Cinese Xiaode","address":"Via Andrea Mantegna 4","LAT_WGS84":45.482835429,"LONG_WGS84":9.1688914597,"geopoint":{"type":"Point","coordinates":[9.1688914597,45.482835429]}},{"name":"Meet2Biz Shop Showroom-Concept Store","address":"Alzaia Naviglio Grande 14","LAT_WGS84":45.4519086182,"LONG_WGS84":9.1752252282,"geopoint":{"type":"Point","coordinates":[9.1752252282,45.4519086182]}},{"name":"AIAP - Associazione Italiana Progettazione per la Comunicazione Visiva","address":"Via Ponchielli 3","LAT_WGS84":45.481197983,"LONG_WGS84":9.2130984339,"geopoint":{"type":"Point","coordinates":[9.2130984339,45.481197983]}},{"name":"Assessorato Benessere, Sport, Qualit\u00e0 della vita  e Tempo llibero","address":"piazza Duomo","LAT_WGS84":45.463404,"LONG_WGS84":9.189982,"geopoint":{"type":"Point","coordinates":[9.189982,45.463404]}},{"name":"Creativa&MotivaMente","address":"via Vigliani 19","LAT_WGS84":45.46427,"LONG_WGS84":9.18951,"geopoint":{"type":"Point","coordinates":[9.18951,45.46427]}},{"name":"Be Wide","address":"Via Plinio 1","LAT_WGS84":45.4803862135,"LONG_WGS84":9.2111093901,"geopoint":{"type":"Point","coordinates":[9.2111093901,45.4803862135]}},{"name":"Mediafriends s.r.l.","address":"Viale Papiniano 49","LAT_WGS84":45.4572719893,"LONG_WGS84":9.1719173363,"geopoint":{"type":"Point","coordinates":[9.1719173363,45.4572719893]}},{"name":"Green Zone Studio","address":"Vicolo Tramontana 6","LAT_WGS84":45.565226,"LONG_WGS84":9.165343,"geopoint":{"type":"Point","coordinates":[9.165343,45.565226]}},{"name":"Milano","address":null,"LAT_WGS84":45.4641038371,"LONG_WGS84":9.1898488998,"geopoint":{"type":"Point","coordinates":[9.1898488998,45.4641038371]}},{"name":"Axer Studio Medico","address":"via Baracchini 1","LAT_WGS84":45.4639,"LONG_WGS84":9.1898,"geopoint":{"type":"Point","coordinates":[9.1898,45.4639]}},{"name":"MC Meroni & Colzani - Atelier Milano","address":"Via Paolo da Cannobio 9","LAT_WGS84":45.4615227945,"LONG_WGS84":9.1907286644,"geopoint":{"type":"Point","coordinates":[9.1907286644,45.4615227945]}},{"name":"Design Innovation","address":"Viale Abruzzi 13","LAT_WGS84":45.4757550096,"LONG_WGS84":9.2165540758,"geopoint":{"type":"Point","coordinates":[9.2165540758,45.4757550096]}},{"name":"Officina Slowear","address":"Piazza del Duomo","LAT_WGS84":45.4647952644,"LONG_WGS84":9.1917971019,"geopoint":{"type":"Point","coordinates":[9.1917971019,45.4647952644]}},{"name":"Certiquality srl","address":null,"LAT_WGS84":45.4640954772,"LONG_WGS84":9.1896035989,"geopoint":{"type":"Point","coordinates":[9.1896035989,45.4640954772]}},{"name":"Vodafone Village","address":"Via Lorenteggio 240","LAT_WGS84":45.4466545528,"LONG_WGS84":9.123545608,"geopoint":{"type":"Point","coordinates":[9.123545608,45.4466545528]}},{"name":"food lab","address":"piazza san fedele","LAT_WGS84":45.465439,"LONG_WGS84":9.190271,"geopoint":{"type":"Point","coordinates":[9.190271,45.465439]}},{"name":"Mediobanca Innovation Services","address":"Via Siusi 7","LAT_WGS84":45.4928270194,"LONG_WGS84":9.2345422134,"geopoint":{"type":"Point","coordinates":[9.2345422134,45.4928270194]}},{"name":"Grigioni","address":null,"LAT_WGS84":45.466667,"LONG_WGS84":9.2,"geopoint":{"type":"Point","coordinates":[9.2,45.466667]}},{"name":"Frecciarossa AV9549 MI>RM","address":"Stazione Milano Centrale","LAT_WGS84":45.4863124738,"LONG_WGS84":9.2044401169,"geopoint":{"type":"Point","coordinates":[9.2044401169,45.4863124738]}},{"name":"Locanda Design","address":null,"LAT_WGS84":45.473818,"LONG_WGS84":9.148678,"geopoint":{"type":"Point","coordinates":[9.148678,45.473818]}},{"name":"Design CAN","address":"Via Ettore Ponti 37","LAT_WGS84":45.442028,"LONG_WGS84":9.156036,"geopoint":{"type":"Point","coordinates":[9.156036,45.442028]}},{"name":"Anna Gili Design Studio","address":"Via Sannio","LAT_WGS84":45.4466013724,"LONG_WGS84":9.2126520215,"geopoint":{"type":"Point","coordinates":[9.2126520215,45.4466013724]}},{"name":"SB Soft srl","address":"Via Santa Maria Valle 3","LAT_WGS84":45.4616808209,"LONG_WGS84":9.18643713,"geopoint":{"type":"Point","coordinates":[9.18643713,45.4616808209]}},{"name":"REVERIA","address":"Porta Venezia","LAT_WGS84":45.47476,"LONG_WGS84":9.205251,"geopoint":{"type":"Point","coordinates":[9.205251,45.47476]}},{"name":"Axer Studio Medico","address":"via Baracchini 1","LAT_WGS84":45.4639,"LONG_WGS84":9.1898,"geopoint":{"type":"Point","coordinates":[9.1898,45.4639]}},{"name":"Beiersdorf S.p.A","address":"Via Eraclito 30","LAT_WGS84":45.4639933175,"LONG_WGS84":9.1893677786,"geopoint":{"type":"Point","coordinates":[9.1893677786,45.4639933175]}},{"name":"dotfarm SRLs","address":"Corso Magenta, 42","LAT_WGS84":45.4658890519,"LONG_WGS84":9.1753944755,"geopoint":{"type":"Point","coordinates":[9.1753944755,45.4658890519]}},{"name":"Milano","address":null,"LAT_WGS84":45.4641038371,"LONG_WGS84":9.1898488998,"geopoint":{"type":"Point","coordinates":[9.1898488998,45.4641038371]}},{"name":"ASPS Design Studio","address":"corso di Porta Romana 23","LAT_WGS84":45.4586387347,"LONG_WGS84":9.1919356585,"geopoint":{"type":"Point","coordinates":[9.1919356585,45.4586387347]}},{"name":"MI AMI Festival","address":null,"LAT_WGS84":45.4642035,"LONG_WGS84":9.189982,"geopoint":{"type":"Point","coordinates":[9.189982,45.4642035]}},{"name":"PcBuster Assistenza Computer","address":"Viale San Michele del Carso, 11","LAT_WGS84":45.46427,"LONG_WGS84":9.18951,"geopoint":{"type":"Point","coordinates":[9.18951,45.46427]}},{"name":"E-Motion Web","address":null,"LAT_WGS84":45.469566,"LONG_WGS84":9.151842,"geopoint":{"type":"Point","coordinates":[9.151842,45.469566]}},{"name":"Axer Studio Medico","address":"via Baracchini 1","LAT_WGS84":45.4639,"LONG_WGS84":9.1898,"geopoint":{"type":"Point","coordinates":[9.1898,45.4639]}},{"name":"Parrocchia Divin Lavoratore","address":null,"LAT_WGS84":45.5264437014,"LONG_WGS84":9.2062878917,"geopoint":{"type":"Point","coordinates":[9.2062878917,45.5264437014]}},{"name":"Salute + Store","address":"Via Parini, 7","LAT_WGS84":45.43248,"LONG_WGS84":8.73229,"geopoint":{"type":"Point","coordinates":[8.73229,45.43248]}},{"name":"Rosticceria Palazzi Iniziativa Uno di Gianluca Palazzi & C Sas","address":"Via Plinio, 9","LAT_WGS84":45.47929,"LONG_WGS84":9.21236,"geopoint":{"type":"Point","coordinates":[9.21236,45.47929]}},{"name":"d.loft","address":"via","LAT_WGS84":45.5104822502,"LONG_WGS84":9.2228078842,"geopoint":{"type":"Point","coordinates":[9.2228078842,45.5104822502]}},{"name":"Milano","address":null,"LAT_WGS84":45.4641038371,"LONG_WGS84":9.1898488998,"geopoint":{"type":"Point","coordinates":[9.1898488998,45.4641038371]}},{"name":"Altridea","address":null,"LAT_WGS84":45.43868,"LONG_WGS84":9.218145,"geopoint":{"type":"Point","coordinates":[9.218145,45.43868]}},{"name":"Interni Mobili & Design S.p.A.","address":"Via Filippo Turati, 8","LAT_WGS84":45.47399,"LONG_WGS84":9.195,"geopoint":{"type":"Point","coordinates":[9.195,45.47399]}},{"name":"Caaf Fabi Milano Servizi Srl","address":null,"LAT_WGS84":45.4629299632,"LONG_WGS84":9.1868154814,"geopoint":{"type":"Point","coordinates":[9.1868154814,45.4629299632]}},{"name":"Quinto Immobiliare - Residenza Riva","address":"Via Porta","LAT_WGS84":45.482624,"LONG_WGS84":9.172595,"geopoint":{"type":"Point","coordinates":[9.172595,45.482624]}},{"name":"Assessorato Turismo e Marketing Milano","address":null,"LAT_WGS84":45.464053,"LONG_WGS84":9.18951,"geopoint":{"type":"Point","coordinates":[9.18951,45.464053]}},{"name":"Certiquality srl","address":null,"LAT_WGS84":45.4640954772,"LONG_WGS84":9.1896035989,"geopoint":{"type":"Point","coordinates":[9.1896035989,45.4640954772]}},{"name":"Cantiere Via Speronari 6 LantierImpianti snc di Daniele Lantieri & C Impianti Tecnici","address":"Via Speronari 6","LAT_WGS84":45.463057,"LONG_WGS84":9.188142,"geopoint":{"type":"Point","coordinates":[9.188142,45.463057]}},{"name":"Beiersdorf S.p.A","address":"Via Eraclito 30","LAT_WGS84":45.4639933175,"LONG_WGS84":9.1893677786,"geopoint":{"type":"Point","coordinates":[9.1893677786,45.4639933175]}},{"name":"Milano Fashion Design House","address":"Piazzetta Liberty","LAT_WGS84":45.4654580878,"LONG_WGS84":9.1941961551,"geopoint":{"type":"Point","coordinates":[9.1941961551,45.4654580878]}},{"name":"Jam Store","address":"Piazza del Duomo","LAT_WGS84":45.4648082201,"LONG_WGS84":9.1917492717,"geopoint":{"type":"Point","coordinates":[9.1917492717,45.4648082201]}},{"name":"Asterisco*lab","address":"Via Marzabotto","LAT_WGS84":45.488472,"LONG_WGS84":9.182698,"geopoint":{"type":"Point","coordinates":[9.182698,45.488472]}},{"name":"ZonaUno","address":"Via Buenos Aries, 37","LAT_WGS84":45.4797059946,"LONG_WGS84":9.21027184,"geopoint":{"type":"Point","coordinates":[9.21027184,45.4797059946]}},{"name":"Lema - Marketing & Graphic design","address":null,"LAT_WGS84":45.4643596775,"LONG_WGS84":9.1901063919,"geopoint":{"type":"Point","coordinates":[9.1901063919,45.4643596775]}},{"name":"Axer Studio Medico","address":"via Baracchini 1","LAT_WGS84":45.4639,"LONG_WGS84":9.1898,"geopoint":{"type":"Point","coordinates":[9.1898,45.4639]}},{"name":"Via Della Signora","address":null,"LAT_WGS84":45.462341,"LONG_WGS84":9.197398,"geopoint":{"type":"Point","coordinates":[9.197398,45.462341]}},{"name":"Six Lands S.r.l. - Impresa Pulizie Milano","address":"Viale Tibaldi, 66","LAT_WGS84":45.4446264637,"LONG_WGS84":9.1841840744,"geopoint":{"type":"Point","coordinates":[9.1841840744,45.4446264637]}},{"name":"Vecchi Libri in Piazza","address":"Piazza Armando Diaz","LAT_WGS84":45.4642417375,"LONG_WGS84":9.1901456694,"geopoint":{"type":"Point","coordinates":[9.1901456694,45.4642417375]}},{"name":"Certiquality srl","address":null,"LAT_WGS84":45.4640954772,"LONG_WGS84":9.1896035989,"geopoint":{"type":"Point","coordinates":[9.1896035989,45.4640954772]}},{"name":"Milano","address":null,"LAT_WGS84":45.4641038371,"LONG_WGS84":9.1898488998,"geopoint":{"type":"Point","coordinates":[9.1898488998,45.4641038371]}},{"name":"Metro Duomo (M1, M3)","address":"Piazza del Duomo","LAT_WGS84":45.4639689054,"LONG_WGS84":9.1890053057,"geopoint":{"type":"Point","coordinates":[9.1890053057,45.4639689054]}},{"name":"Dots Studio","address":"Via Fauch\u00e8 36","LAT_WGS84":45.486937,"LONG_WGS84":9.162501,"geopoint":{"type":"Point","coordinates":[9.162501,45.486937]}},{"name":"GFT Italia S.r.l.","address":"Via Sile 18","LAT_WGS84":45.4859443318,"LONG_WGS84":9.1983458717,"geopoint":{"type":"Point","coordinates":[9.1983458717,45.4859443318]}},{"name":"Ma&mi Srl","address":"Paolo Giovio 16","LAT_WGS84":45.4630279293,"LONG_WGS84":9.1598738389,"geopoint":{"type":"Point","coordinates":[9.1598738389,45.4630279293]}},{"name":"Dnra Professionisti Associati","address":"Piazza del Duomo, 20","LAT_WGS84":45.46444,"LONG_WGS84":9.19279,"geopoint":{"type":"Point","coordinates":[9.19279,45.46444]}},{"name":"photo take away","address":null,"LAT_WGS84":45.4643363953,"LONG_WGS84":9.1864547729,"geopoint":{"type":"Point","coordinates":[9.1864547729,45.4643363953]}},{"name":"DULCAMARA - Grafica e comunicazione","address":"piazza San Nazaro in Brolo, 15","LAT_WGS84":45.4581679209,"LONG_WGS84":9.1933062673,"geopoint":{"type":"Point","coordinates":[9.1933062673,45.4581679209]}},{"name":"Dodicitrenta Digital Creative Studio","address":"Corso XXII Marzo, 19","LAT_WGS84":45.4624251305,"LONG_WGS84":9.210415306,"geopoint":{"type":"Point","coordinates":[9.210415306,45.4624251305]}},{"name":"Il Posto Delle Papere","address":null,"LAT_WGS84":45.4527597719,"LONG_WGS84":9.1740061996,"geopoint":{"type":"Point","coordinates":[9.1740061996,45.4527597719]}},{"name":"Studio Calabiana","address":null,"LAT_WGS84":45.520201,"LONG_WGS84":9.225545,"geopoint":{"type":"Point","coordinates":[9.225545,45.520201]}},{"name":"Certiquality srl","address":null,"LAT_WGS84":45.4640954772,"LONG_WGS84":9.1896035989,"geopoint":{"type":"Point","coordinates":[9.1896035989,45.4640954772]}},{"name":"The Italian artists of the Acacia collection","address":null,"LAT_WGS84":45.4645272346,"LONG_WGS84":9.189424862,"geopoint":{"type":"Point","coordinates":[9.189424862,45.4645272346]}},{"name":"Milano","address":null,"LAT_WGS84":45.4641038371,"LONG_WGS84":9.1898488998,"geopoint":{"type":"Point","coordinates":[9.1898488998,45.4641038371]}},{"name":"Stazione Milano Porta Garibaldi","address":"Piazza Sigmund Freud 1","LAT_WGS84":45.4846727803,"LONG_WGS84":9.1873470816,"geopoint":{"type":"Point","coordinates":[9.1873470816,45.4846727803]}},{"name":"Brandlore","address":null,"LAT_WGS84":45.475814,"LONG_WGS84":9.216406,"geopoint":{"type":"Point","coordinates":[9.216406,45.475814]}},{"name":"May Day Design","address":"Via Cesare Ajraghi 30","LAT_WGS84":45.498078,"LONG_WGS84":9.147327,"geopoint":{"type":"Point","coordinates":[9.147327,45.498078]}},{"name":"Studio grafico Quintopiano","address":"Via Gian Battista Vico, 32, 20123 Milano","LAT_WGS84":45.4622001648,"LONG_WGS84":9.1678714752,"geopoint":{"type":"Point","coordinates":[9.1678714752,45.4622001648]}},{"name":"Ileana Turrini","address":"Via Fiori Oscuri 13","LAT_WGS84":45.472612,"LONG_WGS84":9.189389,"geopoint":{"type":"Point","coordinates":[9.189389,45.472612]}},{"name":"Studio Associato Demontis Gabriele","address":"Viale Luigi Majno, 19","LAT_WGS84":45.46986,"LONG_WGS84":9.2055,"geopoint":{"type":"Point","coordinates":[9.2055,45.46986]}},{"name":"Inventio Company","address":"Via Novara, 91","LAT_WGS84":45.4719441512,"LONG_WGS84":9.1201304883,"geopoint":{"type":"Point","coordinates":[9.1201304883,45.4719441512]}},{"name":"Bilobo HQ","address":null,"LAT_WGS84":45.502982,"LONG_WGS84":9.163789,"geopoint":{"type":"Point","coordinates":[9.163789,45.502982]}},{"name":"ATO servizio Idrico Integrato","address":"Via Dogana 4","LAT_WGS84":45.4636955815,"LONG_WGS84":9.1894457612,"geopoint":{"type":"Point","coordinates":[9.1894457612,45.4636955815]}},{"name":"Studio Armad'illo","address":null,"LAT_WGS84":45.454598,"LONG_WGS84":9.172742,"geopoint":{"type":"Point","coordinates":[9.172742,45.454598]}},{"name":"C12 Cerano Dodici","address":"Via Cerano 12","LAT_WGS84":45.454751,"LONG_WGS84":9.167215,"geopoint":{"type":"Point","coordinates":[9.167215,45.454751]}},{"name":"Room Corporation","address":"Via archimede","LAT_WGS84":45.4659339013,"LONG_WGS84":9.2072738065,"geopoint":{"type":"Point","coordinates":[9.2072738065,45.4659339013]}},{"name":"Flywheel s.r.l.","address":"Viale Coni Zugna 23","LAT_WGS84":45.4591547462,"LONG_WGS84":9.1669007723,"geopoint":{"type":"Point","coordinates":[9.1669007723,45.4591547462]}},{"name":"Lema - Marketing & Graphic design","address":null,"LAT_WGS84":45.4643596775,"LONG_WGS84":9.1901063919,"geopoint":{"type":"Point","coordinates":[9.1901063919,45.4643596775]}},{"name":"Monumento A Vittorio Emanuele II","address":"Piazza Del Duomo","LAT_WGS84":45.4641898394,"LONG_WGS84":9.1894582963,"geopoint":{"type":"Point","coordinates":[9.1894582963,45.4641898394]}}]