[{"name":"Starbucks Reserve Roastery","address":"Piazza Cordusio 3","lat":45.4649202648,"lng":9.1861528158,"geopoint":"{'type': 'Point', 'coordinates': [9.186152815818787, 45.46492026479228]}"},{"name":"Starbucks","address":"Via Lentasio 1","lat":45.458397,"lng":9.191825,"geopoint":"{'type': 'Point', 'coordinates': [9.191825, 45.458397]}"},{"name":"Starbucks","address":"Corso Giuseppe Garibaldi 118","lat":45.480183,"lng":9.186897,"geopoint":"{'type': 'Point', 'coordinates': [9.186897, 45.480183]}"},{"name":"Starbucks","address":"Via Durini 28","lat":45.4658053199,"lng":9.1984372665,"geopoint":"{'type': 'Point', 'coordinates': [9.19843726648353, 45.46580531994816]}"},{"name":"Starbucks","address":"Via Filippo Turati 27","lat":45.476547,"lng":9.195072,"geopoint":"{'type': 'Point', 'coordinates': [9.195072, 45.476547]}"},{"name":"Starbucks","address":"Piazza Luigi di Savoia 1","lat":45.485802,"lng":9.205951,"geopoint":"{'type': 'Point', 'coordinates': [9.205951, 45.485802]}"},{"name":"Starbucks","address":"Corso Vercelli 2","lat":45.466338,"lng":9.164809,"geopoint":"{'type': 'Point', 'coordinates': [9.164809, 45.466338]}"},{"name":"Starbucks","address":null,"lat":45.404607,"lng":9.152048,"geopoint":"{'type': 'Point', 'coordinates': [9.152048, 45.404607]}"},{"name":"Starbucks","address":"Terminal 1","lat":45.625417739,"lng":8.7136282933,"geopoint":"{'type': 'Point', 'coordinates': [8.713628293278248, 45.62541773895297]}"}]